[
  {
    "id": 52,
    "name": "Pulse Padel Hub",
    "address": "1355 Northwest 135th Street",
    "city": "North Miami",
    "state": "FL",
    "zipCode": "33167",
    "latitude": 25.8983889,
    "longitude": -80.2226331,
    "formattedAddress": "1355 NW 135th St, North Miami, FL 33167, USA",
    "confidence": "GEOMETRIC_CENTER"
  },
  {
    "id": 53,
    "name": "Padel X Miami",
    "address": "141 NE 13th Terrace",
    "city": "Miami",
    "state": "FL",
    "zipCode": "33132",
    "latitude": 25.787633,
    "longitude": -80.19146239999999,
    "formattedAddress": "141 NE 13th Terrace, Miami, FL 33132, USA",
    "confidence": "RANGE_INTERPOLATED"
  },
  {
    "id": 54,
    "name": "Padel MKE",
    "address": "737 W Cleveland Ave",
    "city": "Milwaukee",
    "state": "WI",
    "zipCode": "53215",
    "latitude": 42.9950599,
    "longitude": -87.9207546,
    "formattedAddress": "737 W Cleveland Ave, Milwaukee, WI 53215, USA",
    "confidence": "ROOFTOP"
  },
  {
    "id": 55,
    "name": "Park Padel - Embarcadero",
    "address": "Embarcadero Plaza",
    "city": "San Francisco",
    "state": "CA",
    "zipCode": "94111",
    "latitude": 37.7998957,
    "longitude": -122.3984239,
    "formattedAddress": "The Embarcadero, San Francisco, CA 94111, USA",
    "confidence": "GEOMETRIC_CENTER"
  },
  {
    "id": 56,
    "name": "Park Padel - Oyster Point",
    "address": "550-4 Eccles Ave",
    "city": "South San Francisco",
    "state": "CA",
    "zipCode": "94080",
    "latitude": 37.66046120000001,
    "longitude": -122.3904865,
    "formattedAddress": "550 Eccles Ave, South San Francisco, CA 94080, USA",
    "confidence": "ROOFTOP"
  },
  {
    "id": 57,
    "name": "Park Padel - West Sacramento",
    "address": "985 Riverfront St",
    "city": "West Sacramento",
    "state": "CA",
    "zipCode": "95691",
    "latitude": 38.5748325,
    "longitude": -121.5146076,
    "formattedAddress": "985 Riverfront St, West Sacramento, CA 95691, USA",
    "confidence": "GEOMETRIC_CENTER"
  },
  {
    "id": 59,
    "name": "Reserve Padel - Design District",
    "address": "75 NE 39th St",
    "city": "Miami",
    "state": "FL",
    "zipCode": "33137",
    "latitude": 25.8128711,
    "longitude": -80.1940666,
    "formattedAddress": "75 NE 39th St, Miami, FL 33137, USA",
    "confidence": "ROOFTOP"
  },
  {
    "id": 60,
    "name": "Reserve Padel - Seaplane Base",
    "address": "1000 MacArthur Cswy",
    "city": "Miami",
    "state": "FL",
    "zipCode": "33132",
    "latitude": 25.7836433,
    "longitude": -80.17756729999999,
    "formattedAddress": "1000 MacArthur Cswy, Miami, FL 33132, USA",
    "confidence": "GEOMETRIC_CENTER"
  },
  {
    "id": 61,
    "name": "Reserve Padel - Solé Mia",
    "address": "2251 NE 146th St",
    "city": "North Miami",
    "state": "FL",
    "zipCode": "33181",
    "latitude": 25.9112275,
    "longitude": -80.1535835,
    "formattedAddress": "2251 NE 146th St, North Miami, FL 33181, USA",
    "confidence": "ROOFTOP"
  },
  {
    "id": 62,
    "name": "Pepper Padel Miami",
    "address": "1255 NW 135th St",
    "city": "North Miami",
    "state": "FL",
    "zipCode": "33168",
    "latitude": 25.898494,
    "longitude": -80.2219904,
    "formattedAddress": "1255 NW 135th St, North Miami, FL 33168, USA",
    "confidence": "ROOFTOP"
  },
  {
    "id": 63,
    "name": "Miami Padel Federation",
    "address": "8440 NW 64th St",
    "city": "Miami",
    "state": "FL",
    "zipCode": "33166",
    "latitude": 25.8310624,
    "longitude": -80.33491769999999,
    "formattedAddress": "8440 NW 64th St, Miami, FL 33166, USA",
    "confidence": "ROOFTOP"
  },
  {
    "id": 64,
    "name": "Padel Up - Sterling",
    "address": "Sterling",
    "city": "Sterling",
    "state": "VA",
    "zipCode": "20166",
    "latitude": 39.0066993,
    "longitude": -77.4291298,
    "formattedAddress": "Sterling, VA, USA",
    "confidence": "APPROXIMATE"
  },
  {
    "id": 65,
    "name": "Padel Up - Culver City",
    "address": "3007 Hauser Blvd",
    "city": "Los Angeles",
    "state": "CA",
    "zipCode": "90016",
    "latitude": 34.026452,
    "longitude": -118.3652122,
    "formattedAddress": "3007 Hauser Blvd, Los Angeles, CA 90016, USA",
    "confidence": "RANGE_INTERPOLATED"
  },
  {
    "id": 66,
    "name": "Zmash Padel",
    "address": "6635 Sterling Dr. S",
    "city": "Sterling Heights",
    "state": "MI",
    "zipCode": "48312",
    "latitude": 42.5442913,
    "longitude": -83.04102089999999,
    "formattedAddress": "6635 Sterling Dr S, Sterling Heights, MI 48312, USA",
    "confidence": "ROOFTOP"
  },
  {
    "id": 67,
    "name": "The Padel Courts",
    "address": "5115 West Sunset Boulevard",
    "city": "Los Angeles",
    "state": "CA",
    "zipCode": "90027",
    "latitude": 34.0791098,
    "longitude": -118.2687094,
    "formattedAddress": "W Sunset Blvd, Los Angeles, CA 90026, USA",
    "confidence": "GEOMETRIC_CENTER"
  },
  {
    "id": 68,
    "name": "P1 Padel Las Vegas",
    "address": "Las Vegas",
    "city": "Las Vegas",
    "state": "NV",
    "zipCode": "89101",
    "latitude": 36.1697096,
    "longitude": -115.1236952,
    "formattedAddress": "Las Vegas, NV 89101, USA",
    "confidence": "APPROXIMATE"
  },
  {
    "id": 69,
    "name": "Padel AZ",
    "address": "555 E 18th St",
    "city": "Tucson",
    "state": "AZ",
    "zipCode": "85701",
    "latitude": 32.2122731,
    "longitude": -110.9613934,
    "formattedAddress": "555 E 18th St, Tucson, AZ 85701, USA",
    "confidence": "ROOFTOP"
  },
  {
    "id": 70,
    "name": "The Pad Tucson",
    "address": "300 S Toole Ave",
    "city": "Tucson",
    "state": "AZ",
    "zipCode": "85701",
    "latitude": 32.2182322,
    "longitude": -110.9623992,
    "formattedAddress": "300 S Toole Ave, Tucson, AZ 85701, USA",
    "confidence": "ROOFTOP"
  },
  {
    "id": 71,
    "name": "Padel in Orlando",
    "address": "8101 World Center Dr",
    "city": "Orlando",
    "state": "FL",
    "zipCode": "32821",
    "latitude": 28.3599961,
    "longitude": -81.4931131,
    "formattedAddress": "8101 World Center Dr, Orlando, FL 32821, USA",
    "confidence": "GEOMETRIC_CENTER"
  },
  {
    "id": 72,
    "name": "Sodo Padel",
    "address": "3180 Southgate Commerce Blvd",
    "city": "Orlando",
    "state": "FL",
    "zipCode": "32806",
    "latitude": 28.5058949,
    "longitude": -81.3776244,
    "formattedAddress": "3180 Southgate Commerce Blvd, Orlando, FL 32806, USA",
    "confidence": "ROOFTOP"
  },
  {
    "id": 73,
    "name": "Sensa Padel Nashville",
    "address": "1320 Adams St",
    "city": "Nashville",
    "state": "TN",
    "zipCode": "37208",
    "latitude": 36.1807191,
    "longitude": -86.7835139,
    "formattedAddress": "1320 Adams St, Nashville, TN 37208, USA",
    "confidence": "ROOFTOP"
  },
  {
    "id": 74,
    "name": "Rad Padel",
    "address": "39405 Murrieta Hot Springs Rd",
    "city": "Murrieta",
    "state": "CA",
    "zipCode": "92563",
    "latitude": 33.557575,
    "longitude": -117.1564652,
    "formattedAddress": "39405 Murrieta Hot Springs Rd, Murrieta, CA 92563, USA",
    "confidence": "ROOFTOP"
  },
  {
    "id": 75,
    "name": "Taktika Padel - San Diego",
    "address": "4490 W Point Loma Blvd",
    "city": "San Diego",
    "state": "CA",
    "zipCode": "92107",
    "latitude": 32.7539709,
    "longitude": -117.2349091,
    "formattedAddress": "4490 W Point Loma Blvd, San Diego, CA 92107, USA",
    "confidence": "GEOMETRIC_CENTER"
  },
  {
    "id": 76,
    "name": "Padel Boston",
    "address": "220 Rustcraft Rd",
    "city": "Dedham",
    "state": "MA",
    "zipCode": "02026",
    "latitude": 42.231809,
    "longitude": -71.1708769,
    "formattedAddress": "220 Rustcraft Rd, Dedham, MA 02026, USA",
    "confidence": "ROOFTOP"
  },
  {
    "id": 77,
    "name": "Regency Padel Miami",
    "address": "1000 NW 42nd Ave",
    "city": "Miami",
    "state": "FL",
    "zipCode": "33126",
    "latitude": 25.7817426,
    "longitude": -80.26462649999999,
    "formattedAddress": "1000 NW 42nd Ave, Miami, FL 33126, USA",
    "confidence": "ROOFTOP"
  },
  {
    "id": 78,
    "name": "Padel Life & Soccer",
    "address": "1000 W Pembroke Rd",
    "city": "Hallandale Beach",
    "state": "FL",
    "zipCode": "33009",
    "latitude": 25.9961287,
    "longitude": -80.1635982,
    "formattedAddress": "1000 W Pembroke Rd, Hallandale Beach, FL 33009, USA",
    "confidence": "RANGE_INTERPOLATED"
  },
  {
    "id": 79,
    "name": "Rock Creek Tennis Center",
    "address": "Near Silver Spring",
    "city": "Silver Spring",
    "state": "MD",
    "zipCode": "20901",
    "latitude": 39.0207668,
    "longitude": -77.004626,
    "formattedAddress": "Silver Spring, MD 20901, USA",
    "confidence": "APPROXIMATE"
  },
  {
    "id": 80,
    "name": "Padel Social Bethesda",
    "address": "5452 Westbard Avenue",
    "city": "Bethesda",
    "state": "MD",
    "zipCode": "20816",
    "latitude": 38.9647051,
    "longitude": -77.107548,
    "formattedAddress": "5452 Westbard Ave, Bethesda, MD 20816, USA",
    "confidence": "ROOFTOP"
  },
  {
    "id": 81,
    "name": "Glassbox Padel Club",
    "address": "4928 College Ave",
    "city": "College Park",
    "state": "MD",
    "zipCode": "20740",
    "latitude": 38.9797454,
    "longitude": -76.9264489,
    "formattedAddress": "4928 College Ave, College Park, MD 20740, USA",
    "confidence": "ROOFTOP"
  },
  {
    "id": 82,
    "name": "Nicol NJ",
    "address": "850 Oceanport Avenue",
    "city": "Oceanport",
    "state": "NJ",
    "zipCode": "07757",
    "latitude": 40.3192615,
    "longitude": -74.03598339999999,
    "formattedAddress": "850 Oceanport Ave, Oceanport, NJ 07757, USA",
    "confidence": "ROOFTOP"
  },
  {
    "id": 87,
    "name": "The Sports Haus",
    "address": "129 Woodward Avenue",
    "city": "Norwalk",
    "state": "CT",
    "zipCode": "06854",
    "latitude": 41.0864613,
    "longitude": -73.4150202,
    "formattedAddress": "129 Woodward Ave, Norwalk, CT 06854, USA",
    "confidence": "ROOFTOP"
  },
  {
    "id": 88,
    "name": "Matt's Pickle and Padel",
    "address": "301 Deer Run Rd",
    "city": "Sewickley",
    "state": "PA",
    "zipCode": "15143",
    "latitude": 40.5279459,
    "longitude": -80.1387048,
    "formattedAddress": "301 Deer Run Rd, Sewickley, PA 15143, USA",
    "confidence": "ROOFTOP"
  },
  {
    "id": 89,
    "name": "Alma Padel",
    "address": "2300 Ridge Dr",
    "city": "Glenview",
    "state": "IL",
    "zipCode": "60025",
    "latitude": 42.0985904,
    "longitude": -87.81386599999999,
    "formattedAddress": "2300 Ridge Dr, Glenview, IL 60025, USA",
    "confidence": "ROOFTOP"
  },
  {
    "id": 90,
    "name": "Cube Padel Chicago",
    "address": "3900 South Ashland Avenue",
    "city": "Chicago",
    "state": "IL",
    "zipCode": "60609",
    "latitude": 41.8226457,
    "longitude": -87.666601,
    "formattedAddress": "3900 S Ashland Ave, Chicago, IL 60609, USA",
    "confidence": "ROOFTOP"
  },
  {
    "id": 91,
    "name": "Padel Clube",
    "address": "939 Tower Road",
    "city": "Mundelein",
    "state": "IL",
    "zipCode": "60060",
    "latitude": 42.2474456,
    "longitude": -87.9859567,
    "formattedAddress": "939 Tower Rd, Mundelein, IL 60060, USA",
    "confidence": "ROOFTOP"
  },
  {
    "id": 92,
    "name": "Bay Padel - Treasure Island",
    "address": "29 Avenue G",
    "city": "San Francisco",
    "state": "CA",
    "zipCode": "94130",
    "latitude": 37.8184377,
    "longitude": -122.3670083,
    "formattedAddress": "29 Avenue G, San Francisco, CA 94130, USA",
    "confidence": "ROOFTOP"
  },
  {
    "id": 93,
    "name": "Bay Padel - Dogpatch",
    "address": "1070 Maryland St",
    "city": "San Francisco",
    "state": "CA",
    "zipCode": "94107",
    "latitude": 37.7586689,
    "longitude": -122.3839131,
    "formattedAddress": "1070 Maryland St, San Francisco, CA 94124, USA",
    "confidence": "ROOFTOP"
  },
  {
    "id": 94,
    "name": "Bay Padel - Sunnyvale",
    "address": "1365 Geneva Drive",
    "city": "Sunnyvale",
    "state": "CA",
    "zipCode": "94089",
    "latitude": 37.4144993,
    "longitude": -122.0135217,
    "formattedAddress": "1365 Geneva Dr, Sunnyvale, CA 94089, USA",
    "confidence": "ROOFTOP"
  },
  {
    "id": 95,
    "name": "Pura Padel LA",
    "address": "14006 Riverside Dr",
    "city": "Sherman Oaks",
    "state": "CA",
    "zipCode": "91423",
    "latitude": 34.1568918,
    "longitude": -118.43639,
    "formattedAddress": "14006 Riverside Dr, Sherman Oaks, CA 91423, USA",
    "confidence": "GEOMETRIC_CENTER"
  },
  {
    "id": 96,
    "name": "Golden Padel",
    "address": "37521 Mojave Sage Street",
    "city": "Palm Desert",
    "state": "CA",
    "zipCode": "92211",
    "latitude": 33.7763292,
    "longitude": -116.2998737,
    "formattedAddress": "37521 Mojave Sage St, Palm Desert, CA 92211, USA",
    "confidence": "ROOFTOP"
  },
  {
    "id": 97,
    "name": "Padel California",
    "address": "222 South Coast Highway",
    "city": "Oceanside",
    "state": "CA",
    "zipCode": "92054",
    "latitude": 33.1937567,
    "longitude": -117.3772287,
    "formattedAddress": "222 S Coast Hwy, Oceanside, CA 92054, USA",
    "confidence": "ROOFTOP"
  },
  {
    "id": 98,
    "name": "Padel N9NE",
    "address": "9955 Barnes Canyon Road",
    "city": "San Diego",
    "state": "CA",
    "zipCode": "92121",
    "latitude": 32.89845650000001,
    "longitude": -117.2014694,
    "formattedAddress": "9955 Barnes Canyon Rd, San Diego, CA 92121, USA",
    "confidence": "ROOFTOP"
  },
  {
    "id": 99,
    "name": "Kingdom of Padel",
    "address": "4645 Morena Blvd",
    "city": "San Diego",
    "state": "CA",
    "zipCode": "92117",
    "latitude": 32.8223223,
    "longitude": -117.2261814,
    "formattedAddress": "4645 Morena Blvd, San Diego, CA 92117, USA",
    "confidence": "ROOFTOP"
  },
  {
    "id": 100,
    "name": "Tucson Racquet & Fitness Club",
    "address": "4001 N Country Club Rd",
    "city": "Tucson",
    "state": "AZ",
    "zipCode": "85716",
    "latitude": 32.2802363,
    "longitude": -110.9279378,
    "formattedAddress": "4001 N Country Club Rd, Tucson, AZ 85716, USA",
    "confidence": "GEOMETRIC_CENTER"
  },
  {
    "id": 101,
    "name": "SLC Padel Club",
    "address": "2269 S 1200 W, Suite 105",
    "city": "Woods Cross",
    "state": "UT",
    "zipCode": "84087",
    "latitude": 40.8664861,
    "longitude": -111.9134954,
    "formattedAddress": "2269 S 1200 W #105, Woods Cross, UT 84087, USA",
    "confidence": "RANGE_INTERPOLATED"
  },
  {
    "id": 102,
    "name": "Racket Social Club - Denver",
    "address": "82 Inverness Drive East, Suite A2",
    "city": "Englewood",
    "state": "CO",
    "zipCode": "80112",
    "latitude": 39.5789301,
    "longitude": -104.8612308,
    "formattedAddress": "82 Inverness Dr E STE A2, Englewood, CO 80112, USA",
    "confidence": "ROOFTOP"
  },
  {
    "id": 103,
    "name": "Denver Racquets Club",
    "address": "Denver",
    "city": "Denver",
    "state": "CO",
    "zipCode": "80202",
    "latitude": 39.7541032,
    "longitude": -105.0002242,
    "formattedAddress": "Denver, CO 80202, USA",
    "confidence": "APPROXIMATE"
  },
  {
    "id": 104,
    "name": "Padel 9",
    "address": "Colorado Springs",
    "city": "Colorado Springs",
    "state": "CO",
    "zipCode": "80903",
    "latitude": 38.8413423,
    "longitude": -104.8162784,
    "formattedAddress": "Colorado Springs, CO 80903, USA",
    "confidence": "APPROXIMATE"
  },
  {
    "id": 105,
    "name": "Padel Ranch",
    "address": "Colorado",
    "city": "Colorado",
    "state": "CO",
    "zipCode": "80016",
    "latitude": 39.5815071,
    "longitude": -104.7170954,
    "formattedAddress": "Foxfield, CO 80016, USA",
    "confidence": "APPROXIMATE"
  },
  {
    "id": 106,
    "name": "Padel Club El Paso",
    "address": "El Paso",
    "city": "El Paso",
    "state": "TX",
    "zipCode": "79902",
    "latitude": 31.793786,
    "longitude": -106.493598,
    "formattedAddress": "El Paso, TX 79902, USA",
    "confidence": "APPROXIMATE"
  },
  {
    "id": 107,
    "name": "Padel 956",
    "address": "McAllen",
    "city": "McAllen",
    "state": "TX",
    "zipCode": "78501",
    "latitude": 26.2188442,
    "longitude": -98.2322355,
    "formattedAddress": "McAllen, TX 78501, USA",
    "confidence": "APPROXIMATE"
  },
  {
    "id": 108,
    "name": "RGV Padel Club",
    "address": "Brownsville",
    "city": "Brownsville",
    "state": "TX",
    "zipCode": "78520",
    "latitude": 25.9964301,
    "longitude": -97.5788975,
    "formattedAddress": "Brownsville, TX 78520, USA",
    "confidence": "APPROXIMATE"
  },
  {
    "id": 109,
    "name": "Padel Quattro",
    "address": "Albuquerque",
    "city": "Albuquerque",
    "state": "NM",
    "zipCode": "87102",
    "latitude": 35.0848894,
    "longitude": -106.6468148,
    "formattedAddress": "Albuquerque, NM 87102, USA",
    "confidence": "APPROXIMATE"
  },
  {
    "id": 110,
    "name": "Trosky Sports Club",
    "address": "Albuquerque",
    "city": "Albuquerque",
    "state": "NM",
    "zipCode": "87110",
    "latitude": 35.1009909,
    "longitude": -106.5701927,
    "formattedAddress": "Albuquerque, NM 87110, USA",
    "confidence": "APPROXIMATE"
  },
  {
    "id": 111,
    "name": "U-Padel Club - San Antonio",
    "address": "San Antonio",
    "city": "San Antonio",
    "state": "TX",
    "zipCode": "78201",
    "latitude": 29.46357,
    "longitude": -98.5226706,
    "formattedAddress": "San Antonio, TX 78201, USA",
    "confidence": "APPROXIMATE"
  },
  {
    "id": 112,
    "name": "The King of Padel - San Antonio",
    "address": "San Antonio",
    "city": "San Antonio",
    "state": "TX",
    "zipCode": "78205",
    "latitude": 29.422658,
    "longitude": -98.48699049999999,
    "formattedAddress": "San Antonio, TX 78205, USA",
    "confidence": "APPROXIMATE"
  },
  {
    "id": 113,
    "name": "Pick and Paddle",
    "address": "Austin",
    "city": "Austin",
    "state": "TX",
    "zipCode": "78701",
    "latitude": 30.2729209,
    "longitude": -97.74438630000002,
    "formattedAddress": "Austin, TX 78701, USA",
    "confidence": "APPROXIMATE"
  },
  {
    "id": 114,
    "name": "Padel Club Austin",
    "address": "Austin",
    "city": "Austin",
    "state": "TX",
    "zipCode": "78704",
    "latitude": 30.24567279999999,
    "longitude": -97.76883579999999,
    "formattedAddress": "Austin, TX 78704, USA",
    "confidence": "APPROXIMATE"
  },
  {
    "id": 115,
    "name": "Padel 39",
    "address": "Austin",
    "city": "Austin",
    "state": "TX",
    "zipCode": "78739",
    "latitude": 30.1859258,
    "longitude": -97.90482,
    "formattedAddress": "Austin, TX 78739, USA",
    "confidence": "APPROXIMATE"
  },
  {
    "id": 116,
    "name": "Dripping Springs Racquet Club",
    "address": "Dripping Springs",
    "city": "Dripping Springs",
    "state": "TX",
    "zipCode": "78620",
    "latitude": 30.1902067,
    "longitude": -98.0866781,
    "formattedAddress": "Dripping Springs, TX, USA",
    "confidence": "APPROXIMATE"
  },
  {
    "id": 117,
    "name": "Dallas Padel Club",
    "address": "Dallas",
    "city": "Dallas",
    "state": "TX",
    "zipCode": "75201",
    "latitude": 32.788993,
    "longitude": -96.7989312,
    "formattedAddress": "Dallas, TX 75201, USA",
    "confidence": "APPROXIMATE"
  },
  {
    "id": 118,
    "name": "Banner House at T Bar M",
    "address": "New Braunfels",
    "city": "New Braunfels",
    "state": "TX",
    "zipCode": "78132",
    "latitude": 29.7889257,
    "longitude": -98.19942759999999,
    "formattedAddress": "New Braunfels, TX 78132, USA",
    "confidence": "APPROXIMATE"
  },
  {
    "id": 119,
    "name": "Racket Social Club - Alpharetta",
    "address": "Alpharetta",
    "city": "Alpharetta",
    "state": "GA",
    "zipCode": "30009",
    "latitude": 34.0716538,
    "longitude": -84.3068644,
    "formattedAddress": "Milton, GA 30009, USA",
    "confidence": "APPROXIMATE"
  },
  {
    "id": 120,
    "name": "Let's Go Pickleball & Padel",
    "address": "Atlanta",
    "city": "Atlanta",
    "state": "GA",
    "zipCode": "30303",
    "latitude": 33.755711,
    "longitude": -84.3883717,
    "formattedAddress": "Atlanta, GA 30303, USA",
    "confidence": "APPROXIMATE"
  },
  {
    "id": 121,
    "name": "ITP Training Academy",
    "address": "Atlanta",
    "city": "Atlanta",
    "state": "GA",
    "zipCode": "30318",
    "latitude": 33.7946333,
    "longitude": -84.44877199999999,
    "formattedAddress": "Atlanta, GA 30318, USA",
    "confidence": "APPROXIMATE"
  },
  {
    "id": 122,
    "name": "Marcos del Pilar - PADEL USA",
    "address": "Atlanta",
    "city": "Atlanta",
    "state": "GA",
    "zipCode": "30305",
    "latitude": 33.8363126,
    "longitude": -84.38574419999999,
    "formattedAddress": "Atlanta, GA 30305, USA",
    "confidence": "APPROXIMATE"
  },
  {
    "id": 123,
    "name": "Orlando Padel Club Indoor",
    "address": "5950 Lakehurst Dr Unit 101",
    "city": "Orlando",
    "state": "FL",
    "zipCode": "32819",
    "latitude": 28.4527778,
    "longitude": -81.4608535,
    "formattedAddress": "5950 Lakehurst Dr #101, Orlando, FL 32819, USA",
    "confidence": "ROOFTOP"
  },
  {
    "id": 124,
    "name": "Padel World Play",
    "address": "Orlando",
    "city": "Orlando",
    "state": "FL",
    "zipCode": "32803",
    "latitude": 28.5542151,
    "longitude": -81.34544170000001,
    "formattedAddress": "Orlando, FL 32803, USA",
    "confidence": "APPROXIMATE"
  },
  {
    "id": 125,
    "name": "Epic Padel Inc",
    "address": "Charlotte",
    "city": "Charlotte",
    "state": "NC",
    "zipCode": "28202",
    "latitude": 35.2326781,
    "longitude": -80.8460822,
    "formattedAddress": "Charlotte, NC 28202, USA",
    "confidence": "APPROXIMATE"
  },
  {
    "id": 126,
    "name": "Charlotte Padel Club - Matthews",
    "address": "2110 Pleasant Plains Rd",
    "city": "Matthews",
    "state": "NC",
    "zipCode": "28105",
    "latitude": 35.092109,
    "longitude": -80.7231741,
    "formattedAddress": "2110 Pleasant Plains Rd, Matthews, NC 28105, USA",
    "confidence": "GEOMETRIC_CENTER"
  },
  {
    "id": 127,
    "name": "The Drop Club",
    "address": "Puerto Rico",
    "city": "San Juan",
    "state": "PR",
    "zipCode": "00901",
    "latitude": 18.4679641,
    "longitude": -66.1088086,
    "formattedAddress": "San Juan, 00901, Puerto Rico",
    "confidence": "APPROXIMATE"
  },
  {
    "id": 128,
    "name": "Eco's Sports Park",
    "address": "Puerto Rico",
    "city": "Bayamon",
    "state": "PR",
    "zipCode": "00959",
    "latitude": 18.3902046,
    "longitude": -66.1504497,
    "formattedAddress": "Bayamón, 00959, Puerto Rico",
    "confidence": "APPROXIMATE"
  },
  {
    "id": 129,
    "name": "Riviera Tennis Center",
    "address": "Puerto Rico",
    "city": "Carolina",
    "state": "PR",
    "zipCode": "00979",
    "latitude": 18.4402095,
    "longitude": -66.0047211,
    "formattedAddress": "Carolina, 00979, Puerto Rico",
    "confidence": "APPROXIMATE"
  },
  {
    "id": 130,
    "name": "RxPADEL",
    "address": "1210 SW 35th Ave",
    "city": "Boynton Beach",
    "state": "FL",
    "zipCode": "33426",
    "latitude": 26.4948227,
    "longitude": -80.0866226,
    "formattedAddress": "1210 SW 35th Ave, Boynton Beach, FL 33426, USA",
    "confidence": "ROOFTOP"
  },
  {
    "id": 131,
    "name": "Padel Point Miami",
    "address": "1960 Normandy Dr",
    "city": "Miami Beach",
    "state": "FL",
    "zipCode": "33141",
    "latitude": 25.8521122,
    "longitude": -80.1410918,
    "formattedAddress": "1960 Normandy Dr, Miami Beach, FL 33141, USA",
    "confidence": "ROOFTOP"
  },
  {
    "id": 133,
    "name": "Platinum Padel Club",
    "address": "1195 NE 125th St",
    "city": "North Miami",
    "state": "FL",
    "zipCode": "33161",
    "latitude": 25.8909585,
    "longitude": -80.17457499999999,
    "formattedAddress": "1195 NE 125th St, North Miami, FL 33161, USA",
    "confidence": "ROOFTOP"
  },
  {
    "id": 134,
    "name": "La Casa del Padel",
    "address": "6800 W 91st St",
    "city": "Grandview",
    "state": "MO",
    "zipCode": "66212",
    "latitude": 38.9649414,
    "longitude": -94.6639668,
    "formattedAddress": "6800 W 91st St, Overland Park, KS 66212, USA",
    "confidence": "ROOFTOP"
  },
  {
    "id": 135,
    "name": "Padel Haus Atlanta",
    "address": "Atlanta",
    "city": "Atlanta",
    "state": "GA",
    "zipCode": "30308",
    "latitude": 33.7717008,
    "longitude": -84.3726049,
    "formattedAddress": "Atlanta, GA 30308, USA",
    "confidence": "APPROXIMATE"
  },
  {
    "id": 136,
    "name": "Taktika Padel - LA Galaxy",
    "address": "18400 Avalon Blvd",
    "city": "Carson",
    "state": "CA",
    "zipCode": "90746",
    "latitude": 33.8644651,
    "longitude": -118.2628949,
    "formattedAddress": "18400 Avalon Blvd, Carson, CA 90746, USA",
    "confidence": "GEOMETRIC_CENTER"
  },
  {
    "id": 137,
    "name": "Taktika Padel - Stockton",
    "address": "3398 N Pershing Ave",
    "city": "Stockton",
    "state": "CA",
    "zipCode": "95204",
    "latitude": 37.9764934,
    "longitude": -121.3171911,
    "formattedAddress": "3398 N Pershing Ave, Stockton, CA 95204, USA",
    "confidence": "ROOFTOP"
  },
  {
    "id": 138,
    "name": "Taktika Padel - Palm Desert",
    "address": "45750 San Luis Rey Ave",
    "city": "Palm Desert",
    "state": "CA",
    "zipCode": "92260",
    "latitude": 33.7158496,
    "longitude": -116.3767807,
    "formattedAddress": "45750 San Luis Rey Ave, Palm Desert, CA 92260, USA",
    "confidence": "GEOMETRIC_CENTER"
  },
  {
    "id": 139,
    "name": "Taktika Padel - Fairmont Grand Del Mar",
    "address": "5300 Grand Del Mar Court",
    "city": "San Diego",
    "state": "CA",
    "zipCode": "92130",
    "latitude": 32.9381616,
    "longitude": -117.1978827,
    "formattedAddress": "5300 Grand Del Mar Ct, San Diego, CA 92130, USA",
    "confidence": "ROOFTOP"
  },
  {
    "id": 140,
    "name": "Camelback Padel Club",
    "address": "Phoenix",
    "city": "Phoenix",
    "state": "AZ",
    "zipCode": "85016",
    "latitude": 33.5106684,
    "longitude": -112.029752,
    "formattedAddress": "Phoenix, AZ 85016, USA",
    "confidence": "APPROXIMATE"
  },
  {
    "id": 141,
    "name": "Padel Pals",
    "address": "4945 South 71st Street",
    "city": "Mesa",
    "state": "AZ",
    "zipCode": "85212",
    "latitude": 33.3258407,
    "longitude": -111.6798878,
    "formattedAddress": "4945 S 71st St, Mesa, AZ 85212, USA",
    "confidence": "ROOFTOP"
  },
  {
    "id": 142,
    "name": "Dripping Springs Racquet Club",
    "address": "26101 W State Highway 71",
    "city": "Dripping Springs",
    "state": "TX",
    "zipCode": "78620",
    "latitude": 30.3079798,
    "longitude": -97.9546225,
    "formattedAddress": "26101 State Hwy 71, Bee Cave, TX 78738, USA",
    "confidence": "RANGE_INTERPOLATED"
  },
  {
    "id": 143,
    "name": "Dallas Padel Club",
    "address": "13550 Josey Ln",
    "city": "Farmers Branch",
    "state": "TX",
    "zipCode": "75234",
    "latitude": 32.929666,
    "longitude": -96.88252299999999,
    "formattedAddress": "13550 Josey Ln, Farmers Branch, TX 75234, USA",
    "confidence": "RANGE_INTERPOLATED"
  },
  {
    "id": 144,
    "name": "Kraken Padel Club",
    "address": "13939 Inwood Rd",
    "city": "Farmers Branch",
    "state": "TX",
    "zipCode": "75244",
    "latitude": 32.9365823,
    "longitude": -96.8255516,
    "formattedAddress": "13939 Inwood Rd, Farmers Branch, TX 75244, USA",
    "confidence": "RANGE_INTERPOLATED"
  },
  {
    "id": 145,
    "name": "North Texas Racquet Club",
    "address": "6000 Lebanon Rd",
    "city": "Frisco",
    "state": "TX",
    "zipCode": "75034",
    "latitude": 33.1236856,
    "longitude": -96.81584099999999,
    "formattedAddress": "6000 Lebanon Rd, Frisco, TX 75034, USA",
    "confidence": "RANGE_INTERPOLATED"
  },
  {
    "id": 146,
    "name": "Bush Tennis Center Texas Padel",
    "address": "3700 W Wadley Ave",
    "city": "Midland",
    "state": "TX",
    "zipCode": "79707",
    "latitude": 32.0173071,
    "longitude": -102.1354324,
    "formattedAddress": "3700 W Wadley Ave, Midland, TX 79707, USA",
    "confidence": "RANGE_INTERPOLATED"
  },
  {
    "id": 147,
    "name": "Reserve Padel - Hudson Yards",
    "address": "555 W 33rd St",
    "city": "New York",
    "state": "NY",
    "zipCode": "10001",
    "latitude": 40.7551658,
    "longitude": -74.0018189,
    "formattedAddress": "555 W 33rd St, New York, NY 10001, USA",
    "confidence": "ROOFTOP"
  },
  {
    "id": 148,
    "name": "Padel Haus - Dumbo",
    "address": "Water St",
    "city": "Brooklyn",
    "state": "NY",
    "zipCode": "11201",
    "latitude": 40.7031429,
    "longitude": -73.9875891,
    "formattedAddress": "Water St, Brooklyn, NY 11201, USA",
    "confidence": "GEOMETRIC_CENTER"
  },
  {
    "id": 149,
    "name": "Padel Haus - Williamsburg",
    "address": "Grand St",
    "city": "Brooklyn",
    "state": "NY",
    "zipCode": "11249",
    "latitude": 40.7155925,
    "longitude": -73.9639687,
    "formattedAddress": "Grand St, Brooklyn, NY 11249, USA",
    "confidence": "GEOMETRIC_CENTER"
  },
  {
    "id": 150,
    "name": "Goldenpoint New York",
    "address": "470 Vanderbilt Ave",
    "city": "Brooklyn",
    "state": "NY",
    "zipCode": "11238",
    "latitude": 40.683223,
    "longitude": -73.9680142,
    "formattedAddress": "470 Vanderbilt Ave, Brooklyn, NY 11238, USA",
    "confidence": "ROOFTOP"
  },
  {
    "id": 151,
    "name": "Brisas",
    "address": "66 Newtown Ln",
    "city": "East Hampton",
    "state": "NY",
    "zipCode": "11937",
    "latitude": 40.9646619,
    "longitude": -72.1877969,
    "formattedAddress": "66 Newtown Ln, East Hampton, NY 11937, USA",
    "confidence": "ROOFTOP"
  },
  {
    "id": 152,
    "name": "USTA National Campus",
    "address": "100 USTA Blvd",
    "city": "Orlando",
    "state": "FL",
    "zipCode": "32827",
    "latitude": 28.3992174,
    "longitude": -81.2789066,
    "formattedAddress": "USTA Blvd, Orlando, FL 32827, USA",
    "confidence": "GEOMETRIC_CENTER"
  },
  {
    "id": 153,
    "name": "Orlando Padel Club Indoor",
    "address": "5401 S Kirkman Rd",
    "city": "Orlando",
    "state": "FL",
    "zipCode": "32819",
    "latitude": 28.4842556,
    "longitude": -81.4575523,
    "formattedAddress": "5401 S Kirkman Rd, Orlando, FL 32819, USA",
    "confidence": "ROOFTOP"
  },
  {
    "id": 154,
    "name": "Sodo Padel",
    "address": "1890 S Orange Ave",
    "city": "Orlando",
    "state": "FL",
    "zipCode": "32806",
    "latitude": 28.5202591,
    "longitude": -81.3766562,
    "formattedAddress": "1890 S Orange Ave, Orlando, FL 32806, USA",
    "confidence": "RANGE_INTERPOLATED"
  },
  {
    "id": 155,
    "name": "10by20 - Ft Lauderdale",
    "address": "1350 SW 1st Ave",
    "city": "Fort Lauderdale",
    "state": "FL",
    "zipCode": "33315",
    "latitude": 26.1046326,
    "longitude": -80.1436854,
    "formattedAddress": "1350 SW 1st Ave, Fort Lauderdale, FL 33315, USA",
    "confidence": "RANGE_INTERPOLATED"
  },
  {
    "id": 156,
    "name": "6 Love Sports",
    "address": "1000 5th St",
    "city": "Miami Beach",
    "state": "FL",
    "zipCode": "33139",
    "latitude": 25.7739503,
    "longitude": -80.1385842,
    "formattedAddress": "1000 5th St, Miami Beach, FL 33139, USA",
    "confidence": "ROOFTOP"
  },
  {
    "id": 157,
    "name": "Cube Padel - Chicago",
    "address": "2600 N Southport Ave",
    "city": "Chicago",
    "state": "IL",
    "zipCode": "60614",
    "latitude": 41.9293444,
    "longitude": -87.6637577,
    "formattedAddress": "2600 N Southport Ave, Chicago, IL 60614, USA",
    "confidence": "ROOFTOP"
  },
  {
    "id": 158,
    "name": "Union Padel Club",
    "address": "1000 W Washington Blvd",
    "city": "Chicago",
    "state": "IL",
    "zipCode": "60607",
    "latitude": 41.883627,
    "longitude": -87.652422,
    "formattedAddress": "1000 W Washington Blvd, Chicago, IL 60607, USA",
    "confidence": "ROOFTOP"
  },
  {
    "id": 159,
    "name": "Alma Padel",
    "address": "1550 Milwaukee Ave",
    "city": "Glenview",
    "state": "IL",
    "zipCode": "60025",
    "latitude": 42.084079,
    "longitude": -87.8674326,
    "formattedAddress": "1550 Milwaukee Ave, Glenview, IL 60025, USA",
    "confidence": "RANGE_INTERPOLATED"
  },
  {
    "id": 160,
    "name": "Club Pickle & Padel",
    "address": "777 Central Ave",
    "city": "Highland Park",
    "state": "IL",
    "zipCode": "60035",
    "latitude": 42.1843563,
    "longitude": -87.8043074,
    "formattedAddress": "777 Central Ave, Highland Park, IL 60035, USA",
    "confidence": "ROOFTOP"
  },
  {
    "id": 161,
    "name": "Padel Clube",
    "address": "1500 Townline Rd",
    "city": "Mundelein",
    "state": "IL",
    "zipCode": "60060",
    "latitude": 42.2412841,
    "longitude": -87.97899129999999,
    "formattedAddress": "1500 Townline Rd, Mundelein, IL 60060, USA",
    "confidence": "RANGE_INTERPOLATED"
  },
  {
    "id": 162,
    "name": "PATL - Atlanta",
    "address": "5685 Oakbrook Pkwy",
    "city": "Atlanta",
    "state": "GA",
    "zipCode": "30093",
    "latitude": 33.9187479,
    "longitude": -84.19241869999999,
    "formattedAddress": "5685 Oakbrook Pkwy, Norcross, GA 30093, USA",
    "confidence": "RANGE_INTERPOLATED"
  },
  {
    "id": 163,
    "name": "Sensa Padel - Boston",
    "address": "200 Inner Belt Rd",
    "city": "Boston",
    "state": "MA",
    "zipCode": "02145",
    "latitude": 42.3771008,
    "longitude": -71.0833641,
    "formattedAddress": "200 Inner Belt Rd, Somerville, MA 02143, USA",
    "confidence": "ROOFTOP"
  },
  {
    "id": 164,
    "name": "Sensa Padel - Nashville",
    "address": "5th Ave N",
    "city": "Nashville",
    "state": "TN",
    "zipCode": "37219",
    "latitude": 36.1681011,
    "longitude": -86.7833501,
    "formattedAddress": "5th Ave N, Nashville, TN 37219, USA",
    "confidence": "GEOMETRIC_CENTER"
  },
  {
    "id": 165,
    "name": "Charlotte Padel Club",
    "address": "1844 Sam Newell Rd",
    "city": "Matthews",
    "state": "NC",
    "zipCode": "28105",
    "latitude": 35.1376809,
    "longitude": -80.71398649999999,
    "formattedAddress": "1844 Sam Newell Rd, Matthews, NC 28105, USA",
    "confidence": "RANGE_INTERPOLATED"
  },
  {
    "id": 166,
    "name": "Padel Boston",
    "address": "300 Providence Hwy",
    "city": "Dedham",
    "state": "MA",
    "zipCode": "02026",
    "latitude": 42.2541097,
    "longitude": -71.16935939999999,
    "formattedAddress": "300 Providence Hwy, Dedham, MA 02026, USA",
    "confidence": "GEOMETRIC_CENTER"
  }
]